,Name,country,latitude,longitude,max temperature,cloudiness,date,humidity,wind speed
0,mataura,NZ,-46.19,168.86,44.53,92,1538236855,97,2.48
1,hithadhoo,MV,-0.6,73.08,81.88,92,1538236856,100,9.19
2,tekeli,KZ,44.86,78.76,50.2,0,1538236857,60,3.71
3,saint-augustin,FR,44.83,-0.61,75.2,0,1538235000,38,8.05
4,bredasdorp,ZA,-34.53,20.04,64.4,0,1538233200,52,16.11
5,poum,MK,41.28,20.71,61.63,0,1538236861,35,2.48
6,cherskiy,RU,68.75,161.3,33.91,76,1538236862,93,6.85
7,barentsburg,,,,,,,,
8,wakkanai,JP,45.41,141.67,62.8,0,1538236864,100,17.81
9,port hawkesbury,CA,45.62,-61.36,53.6,90,1538233200,93,9.17
10,mullaitivu,,,,,,,,
11,san benito,CO,6.13,-73.51,73.42,0,1538236931,80,2.93
12,punta arenas,CL,-53.16,-70.91,41,40,1538233200,65,4.7
13,busselton,AU,-33.64,115.35,57.58,68,1538236871,100,15.79
14,isangel,VU,-19.55,169.27,71.26,100,1538236873,100,16.69
15,vaini,IN,15.34,74.49,73.33,48,1538236874,96,1.03
16,carnarvon,ZA,-30.97,22.13,74.41,0,1538236875,6,8.52
17,ambilobe,MG,-13.19,49.05,78.91,12,1538236877,47,14.34
18,albany,US,42.65,-73.75,62.6,75,1538236260,55,10.29
19,rikitea,PF,-23.12,-134.97,71.53,76,1538236879,100,5.73
20,qaanaaq,GL,77.48,-69.36,21.22,76,1538236596,100,5.73
21,victoria,BN,5.28,115.24,82.4,75,1538235000,88,4.72
22,mudyuga,,,,,,,,
23,charlottesville,US,38.03,-78.48,71.96,1,1538234100,71,10.29
24,vila franca do campo,PT,37.72,-25.43,73.4,40,1538235000,60,17.22
25,gabrovo,BG,42.87,25.32,69.8,44,1538235000,28,3.36
26,upernavik,GL,72.79,-56.15,34.09,88,1538236887,100,23.85
27,bluff,AU,-23.58,149.07,66.13,20,1538236719,68,6.73
28,hilo,US,19.71,-155.08,75.92,1,1538232780,93,3.36
29,vila velha,BR,-3.71,-38.6,87.8,0,1538236800,58,18.34
30,new norfolk,AU,-42.78,147.06,50,75,1538235000,66,10.29
31,balite,PH,13.83,120.92,77.29,12,1538236893,93,6.4
32,riyadh,SA,24.63,46.72,96.8,0,1538233200,5,9.17
33,thompson,CA,55.74,-97.86,32,90,1538233200,99,10.29
34,samalaeulu,,,,,,,,
35,mahebourg,MU,-20.41,57.7,73.4,75,1538233200,78,11.41
36,katobu,ID,-4.94,122.53,79.72,56,1538236898,94,7.4
37,dikson,RU,73.51,80.55,44.89,88,1538236899,76,23.85
38,kamina,CD,-8.74,25,82.33,44,1538236901,74,2.82
39,mabaruma,GY,8.2,-59.78,87.19,44,1538236902,74,7.18
40,padang,ID,-0.92,100.36,79.45,64,1538236903,100,6.4
41,port hedland,AU,-20.31,118.58,73.4,40,1538235000,78,13.87
42,kapaa,US,22.08,-159.32,77,75,1538234580,93,9.17
43,tiksi,RU,71.64,128.87,30.85,88,1538236906,100,3.04
44,tuktoyaktuk,CA,69.44,-133.03,26.6,90,1538233200,92,9.17
45,atuona,PF,-9.8,-139.03,79.18,0,1538236909,100,11.21
46,baghdad,IQ,33.3,44.38,87.8,0,1538236800,25,5.82
47,alekseyevsk,RU,57.84,108.35,34.27,0,1538236911,89,2.15
48,igarka,RU,67.47,86.57,50.11,92,1538236912,72,27.31
49,marsabit,KE,2.34,37.99,81.88,0,1538236913,47,11.99
50,coihaique,CL,-45.58,-72.07,37.4,90,1538233560,75,6.93
51,rialma,BR,-15.31,-49.58,95.56,20,1538236916,36,5.17
52,mudgee,AU,-32.6,149.59,39.94,0,1538236917,69,7.18
53,illoqqortoormiut,,,,,,,,
54,khatanga,RU,71.98,102.47,38.95,12,1538236919,89,13.67
55,lagoa,PT,37.14,-8.45,77,20,1538235000,65,6.93
56,samusu,,,,,,,,
57,cape town,ZA,-33.93,18.42,69.8,0,1538233200,49,9.17
58,kaeo,NZ,-35.1,173.78,38.23,0,1538236924,78,3.04
59,ucluelet,CA,48.94,-125.55,55.4,40,1538234760,93,6.93
60,opuwo,NA,-18.06,13.84,95.2,0,1538236926,12,6.96
61,hobart,AU,-42.88,147.33,50,75,1538235000,66,10.29
62,bereda,ES,43.27,-7.54,71.6,0,1538235000,68,5.82
63,gari,RU,59.43,62.35,43.81,32,1538236930,83,9.42
64,faanui,PF,-16.48,-151.75,76.39,0,1538236932,100,6.51
65,malwan,,,,,,,,
66,nikolskoye,RU,59.7,30.79,44.6,0,1538235000,56,6.71
67,kahului,US,20.89,-156.47,78.98,90,1538235900,97,6.93
68,jamestown,AU,-33.21,138.6,36.79,0,1538236937,81,6.51
69,myingyan,MM,21.46,95.39,76.66,64,1538236938,98,1.36
70,raduzhnyy,RU,62.1,77.47,43.18,64,1538236703,85,13.11
71,bambous virieux,MU,-20.34,57.76,73.4,75,1538233200,78,11.41
72,biggar,GB,55.62,-3.52,51.8,75,1538234400,81,19.46
73,cairns,AU,-16.92,145.77,71.6,20,1538235000,68,10.29
74,port alfred,ZA,-33.59,26.89,66.31,0,1538236944,78,7.85
75,severo-kurilsk,RU,50.68,156.12,45.61,44,1538236945,100,8.63
76,mys shmidta,,,,,,,,
77,faya,SA,18.39,42.45,77,20,1538233200,17,13.87
78,georgetown,GY,6.8,-58.16,91.4,40,1538233200,59,9.17
79,ushuaia,AR,-54.81,-68.31,35.6,90,1538233200,93,11.41
80,mosquera,CO,4.71,-74.23,69.8,40,1538233200,43,13.87
81,lebu,ET,8.96,38.73,67.39,8,1538236952,29,10.42
82,natal,BR,-5.81,-35.21,86,40,1538236800,58,18.34
83,vereeniging,ZA,-26.67,27.93,80.98,36,1538236954,12,6.51
84,hobyo,SO,5.35,48.53,78.73,76,1538236955,88,13.22
85,kaliua,TZ,-5.06,31.79,88.54,0,1538236956,25,4.72
86,chokurdakh,RU,70.62,147.9,27.43,48,1538236957,94,8.97
87,banamba,ML,13.55,-7.45,85.48,48,1538236959,83,3.94
88,esperance,TT,10.24,-61.45,86,75,1538233200,74,14.99
89,alice springs,AU,-23.7,133.88,62.6,0,1538235000,29,9.17
90,clyde river,CA,70.47,-68.59,26.6,1,1538233200,68,4.7
91,matara,PE,-13.74,-72.9,57.2,40,1538233200,47,10.29
92,taolanaro,,,,,,,,
93,turayf,SA,31.68,38.65,91.4,0,1538233200,17,11.41
94,porto belo,BR,-27.15,-48.54,78.8,40,1538233200,78,12.75
95,avarua,CK,-21.21,-159.78,69.8,75,1538233200,73,3.36
96,salalah,OM,17.01,54.1,78.8,20,1538232600,78,4.7
97,boende,CD,-0.28,20.88,83.41,8,1538236970,70,2.93
98,cayenne,GF,4.94,-52.33,89.6,75,1538235000,62,9.17
99,belushya guba,,,,,,,,
100,louisbourg,,,,,,,,
101,popondetta,PG,-8.77,148.24,63.16,0,1538236974,87,1.7
102,seddon,NZ,-41.67,174.07,51.64,0,1538236976,92,13
103,mago,RU,53.27,140.15,44.26,48,1538236977,75,3.49
104,gazli,UZ,40.13,63.45,72.43,0,1538236739,36,10.65
105,jalu,LY,29.03,21.55,88.45,76,1538236979,18,10.09
106,slobozia,RO,44.56,27.36,69.46,64,1538236980,46,9.86
107,magistralnyy,RU,56.17,107.45,30.31,0,1538236981,84,2.26
108,mergui,,,,,,,,
109,tasiilaq,GL,65.61,-37.64,39.2,20,1538236200,38,6.93
110,abu samrah,SY,35.3,37.18,88.36,0,1538236985,23,12.44
111,springdale,US,36.19,-94.13,66.2,40,1538235180,82,4.7
112,cidreira,BR,-30.17,-50.22,79,0,1538236987,75,16.8
113,araouane,ML,18.9,-3.53,98.89,80,1538236988,28,4.61
114,llanes,ES,43.42,-4.75,68.74,0,1538236990,65,2.82
115,qasigiannguit,GL,68.82,-51.19,33.8,75,1538236200,69,12.75
116,carnduff,CA,49.17,-101.8,36.43,88,1538236992,59,4.16
117,port blair,IN,11.67,92.75,84.13,0,1538236993,100,3.6
118,guerrero negro,MX,27.97,-114.04,69.37,0,1538236994,89,5.17
119,belgrade,RS,44.82,20.46,64.4,0,1538235000,42,14.99
120,chuy,UY,-33.69,-53.46,77.65,36,1538236997,82,23.4
121,leesburg,US,39.12,-77.56,73.58,1,1538236080,57,5.82
122,provideniya,RU,64.42,-173.23,48.94,92,1538236999,86,24.18
123,mayo,CA,63.59,-135.9,24.8,20,1538233200,73,5.82
124,beruwala,LK,6.48,79.98,77.29,92,1538237001,100,4.5
125,port lincoln,AU,-34.72,135.86,49.84,0,1538237002,100,10.09
126,nanortalik,GL,60.14,-45.24,38.14,56,1538237003,94,11.21
127,sola,NO,58.89,5.65,51.8,75,1538234400,76,16.11
128,saint george,GR,39.45,22.34,59,75,1538234400,87,14.99
129,katsuura,JP,33.93,134.5,68,90,1538231820,94,3.36
130,hirosaki,JP,40.61,140.38,57.04,92,1538236948,100,3.15
131,mareeba,AU,-16.99,145.42,71.6,20,1538235000,68,10.29
132,ballina,IE,54.11,-9.15,51.8,75,1538235000,71,14.99
133,dourados,BR,-22.22,-54.81,82.06,88,1538236936,86,11.65
134,kankaanpaa,FI,61.8,22.42,48.2,64,1538236200,61,10.29
135,trincomalee,LK,8.58,81.23,74.14,36,1538237014,99,4.05
136,northam,GB,51.04,-4.21,60.8,20,1538236200,59,5.82
137,bowen,AU,-20.01,148.25,62.6,40,1538233200,88,5.82
138,altay,CN,47.83,88.13,33.1,36,1538237017,83,1.92
139,nizhneyansk,,,,,,,,
140,troitsko-pechorsk,RU,62.71,56.19,39.85,92,1538237019,100,7.74
141,te anau,NZ,-45.41,167.72,40.66,92,1538237020,100,2.93
142,oyem,GA,1.6,11.57,84.2,40,1538233200,62,2.93
143,amderma,,,,,,,,
144,cabo san lucas,MX,22.89,-109.91,80.6,75,1538232180,88,5.95
145,attawapiskat,,,,,,,,
146,phangnga,TH,8.45,98.53,84.2,20,1538235000,74,2.71
147,tabiauea,,,,,,,,
148,puerto ayora,EC,-0.74,-90.35,77,40,1538233200,69,13.87
149,hermanus,ZA,-34.42,19.24,73.78,0,1538237029,28,3.38
150,lumeje,AO,-11.56,20.78,83.95,36,1538237030,46,7.4
151,awash,ET,8.99,40.17,82.33,0,1538237032,26,7.07
152,vestmanna,FO,62.16,-7.17,46.4,92,1538234400,81,23.04
153,impfondo,CD,1.62,18.06,86.11,44,1538237034,67,2.48
154,whitecourt,CA,54.14,-115.68,30.2,90,1538234280,80,3.36
155,takoradi,GH,4.89,-1.75,78.19,64,1538237036,96,8.86
156,tibiao,PH,11.29,122.03,79,88,1538237037,100,7.18
157,sentyabrskiy,,,,,,,,
158,saskylakh,RU,71.97,114.09,33.91,68,1538237039,99,8.19
159,sriperumbudur,IN,12.97,79.95,86,40,1538235000,70,4.7
160,snezhnogorsk,RU,69.19,33.23,30.2,0,1538235000,68,4.47
161,kafanchan,NG,9.58,8.3,76.21,80,1538237043,90,3.15
162,kungurtug,RU,50.6,97.53,27.61,44,1538237044,75,2.59
163,naryan-mar,RU,67.67,53.09,41.11,92,1538237045,98,16.58
164,kilindoni,TZ,-7.91,39.67,79.27,0,1538237046,96,13.78
165,derzhavinsk,KZ,51.1,66.31,53.71,0,1538237048,44,11.1
166,hay river,CA,60.82,-115.79,32,90,1538233200,68,10.29
167,beringovskiy,RU,63.05,179.32,49.39,92,1538237050,93,23.4
168,ilulissat,GL,69.22,-51.1,33.8,75,1538236200,69,12.75
169,kapit,MY,2.02,112.94,73.15,64,1538237052,98,2.04
170,sao jose do calcado,BR,-21.03,-41.65,72.16,92,1538237053,99,3.94
171,laguna,MX,27.52,-110.01,82.4,75,1538232480,83,4.7
172,nemuro,JP,43.32,145.57,61.18,32,1538237056,98,10.65
173,yangambi,CD,0.77,24.47,80.44,32,1538237057,82,3.04
174,aksarka,RU,66.56,67.8,40.93,92,1538237058,97,13.67
175,meulaboh,ID,4.14,96.13,77.47,92,1538237059,100,4.72
176,awbari,LY,26.59,12.77,86.74,24,1538237060,32,3.15
177,atyrau,KZ,47.1,51.92,59,0,1538235000,44,2.24
178,antequera,PY,-24.09,-57.2,88.72,64,1538237063,59,10.65
179,blackwater,GB,51.33,-0.78,64.4,0,1538236200,45,3.36
180,kalemie,CD,-5.95,29.2,82.33,8,1538237065,78,1.36
181,kodiak,US,39.95,-94.76,48.92,90,1538234640,86,8.05
182,mattru,SL,7.62,-11.83,81.61,68,1538237067,92,4.05
183,yulara,AU,-25.24,130.99,75.2,8,1538233200,23,17.22
184,khuzhir,RU,53.19,107.35,39.31,0,1538237070,100,4.5
185,georgiyevka,RU,52.25,40.45,45.88,92,1538237071,99,11.43
186,cocachacra,PE,-17.09,-71.76,68.56,0,1538237072,68,4.05
187,guaraniacu,BR,-25.1,-52.88,77,40,1538233200,65,27.51
188,gurskoye,,,,,,,,
189,braganca,BR,-1.05,-46.77,89.89,0,1538237075,61,10.54
190,sao jose da coroa grande,BR,-8.9,-35.15,78.64,76,1538237076,91,8.75
191,castro,CL,-42.48,-73.76,45.25,92,1538237078,100,11.1
192,paris,FR,48.86,2.35,64.4,0,1538235000,31,10.29
193,boguchany,RU,58.38,97.46,42.73,0,1538237080,65,5.39
194,khandyga,RU,62.65,135.58,30.22,12,1538237081,90,5.17
195,naze,NG,5.43,7.07,84.76,36,1538237082,89,5.17
196,maarianhamina,,,,,,,,
197,astakos,GR,38.54,21.08,75.2,40,1538234400,53,13.87
198,pasighat,IN,28.06,95.33,70.45,88,1538237085,85,1.7
199,dubrovnik,HR,42.65,18.09,77,0,1538235000,25,13.87
200,kruisfontein,ZA,-34,24.73,66.31,0,1538237088,68,14
201,batagay-alyta,RU,67.8,130.41,11.23,88,1538237089,66,2.71
202,kikwit,CD,-5.04,18.82,82.24,68,1538237090,82,5.17
203,touros,BR,-5.2,-35.46,83.23,68,1538237091,74,14.12
204,mar del plata,AR,-46.43,-67.52,54.61,0,1538236967,48,18.92
205,east london,ZA,-33.02,27.91,64.4,40,1538233200,55,11.41
206,abu kamal,SY,34.45,40.92,91.87,0,1538237094,19,9.64
207,sakaiminato,JP,35.55,133.23,66.2,75,1538233200,88,13.87
208,longyearbyen,NO,78.22,15.63,26.6,40,1538232600,68,3.36
209,daru,SL,7.99,-10.85,80.35,36,1538237098,90,8.3
210,pedasi,PA,7.53,-80.03,81.97,64,1538237099,100,11.88
211,tuatapere,NZ,-46.13,167.69,45.97,92,1538237100,100,7.4
212,tabas,IR,33.6,56.92,67.75,0,1538237101,21,4.72
213,pevek,RU,69.7,170.27,39.04,92,1538237102,100,5.17
214,lata,IN,30.78,78.62,51.1,0,1538237104,100,1.81
215,ovre ardal,NO,61.32,7.8,36.16,92,1538237105,97,6.17
216,hami,CN,42.84,93.51,54.61,80,1538237106,55,4.72
217,airai,TL,-8.93,125.41,64.69,0,1538237107,83,1.81
218,pacific grove,US,36.62,-121.92,59,90,1538235300,76,8.05
219,bethel,US,60.79,-161.76,48.92,1,1538232780,86,5.82
220,borujerd,IR,33.89,48.76,64.96,8,1538237110,41,1.7
221,nome,US,30.04,-94.42,75.02,90,1538236800,91,9.75
222,sao filipe,CV,14.9,-24.5,80.62,0,1538237113,90,11.65
223,ust-maya,RU,60.42,134.54,32.65,76,1538237114,81,5.17
224,butaritari,KI,3.07,172.79,84.85,68,1538237115,100,3.6
225,lolua,,,,,,,,
226,nur,PL,52.67,22.32,54.07,0,1538237117,55,6.4
227,matadi,CD,-5.83,13.46,88.27,64,1538237118,55,8.08
228,san carlos de bariloche,AR,-41.13,-71.31,44.6,40,1538233200,66,31.09
229,marsh harbour,BS,26.54,-77.06,83.23,64,1538237121,100,16.02
230,songea,TZ,-10.68,35.65,82.4,20,1538233200,30,10.29
231,portland,US,45.52,-122.67,57.02,75,1538233740,83,5.82
232,kamenskoye,,,,,,,,
233,port elizabeth,US,39.31,-74.98,75.02,1,1538236500,57,9.17
234,sorvag,,,,,,,,
235,marcona,,,,,,,,
236,karamea,,,,,,,,
237,havoysund,NO,71,24.66,37.4,20,1538236200,69,27.51
238,batagay,RU,67.65,134.64,21.49,8,1538237130,85,5.17
239,ola,RU,59.58,151.3,39.2,40,1538233200,80,2.24
240,guderup,DK,54.99,9.87,57.2,48,1538236200,58,12.75
241,ponnani,IN,10.77,75.93,78.8,90,1538235000,88,3.36
242,pangnirtung,CA,66.15,-65.72,35.6,90,1538233200,55,12.75
243,kasongo-lunda,CD,-6.48,16.82,75.22,44,1538237136,92,1.48
244,sirjan,IR,29.44,55.67,61.99,0,1538237137,22,5.39
245,vaitupu,,,,,,,,
246,alexandria,US,31.31,-92.44,75.02,40,1538235480,76,6.93
247,asfi,,,,,,,,
248,sao miguel,BR,4.52,-61.01,79.54,20,1538237142,81,2.15
249,eldoret,KE,0.52,35.27,66.2,75,1538235000,52,9.17
250,lerwick,GB,60.15,-1.15,51.8,80,1538236200,61,24.16
251,qarqin,AF,37.41,66.03,68.29,0,1538237145,40,5.06
252,mokshan,RU,53.44,44.61,48.85,92,1538237146,68,5.84
253,sarangani,PH,5.4,125.46,83.05,0,1538237147,98,4.61
254,dalvik,SE,57.79,14.13,48.2,92,1538236200,87,14.99
255,whitehorse,CA,60.72,-135.06,26.6,5,1538233200,92,3.36
256,ewo,CG,-0.88,14.81,84.49,36,1538237151,70,2.59
257,tanout,NE,14.97,8.88,101.59,68,1538237152,20,10.42
258,tikheron,,,,,,,,
259,ribeira grande,PT,38.52,-28.7,75.2,40,1538235000,60,19.46
260,saint-philippe,CA,45.36,-73.48,58.28,90,1538235300,66,3.36
261,fort nelson,CA,58.81,-122.69,30.2,75,1538233200,68,3.36
262,dryden,CA,49.79,-92.84,33.8,1,1538233200,55,9.17
263,marrakesh,MA,31.63,-7.99,78.8,40,1538235000,41,12.75
264,samarai,PG,-10.62,150.67,74.59,92,1538237160,100,15.79
265,san quintin,PH,17.54,120.52,75.2,40,1538233200,100,2.24
266,sao bernardo do campo,BR,-23.69,-46.56,78.8,75,1538236800,54,8.05
267,teyateyaneng,LS,-29.15,27.74,70.81,0,1538237163,17,2.93
268,luderitz,NA,-26.65,15.16,72.61,0,1538237164,62,12.77
269,kipini,KE,-2.53,40.53,78.55,0,1538237166,84,16.46
270,ambon,FR,47.55,-2.56,68,0,1538235000,40,9.17
271,moissala,TD,8.34,17.77,91.33,8,1538237168,61,4.38
272,forestville,CA,48.74,-69.09,48.2,75,1538233200,76,14.99
273,ishinomaki,JP,38.42,141.3,66.49,92,1538237170,100,21.27
274,petropavl,KZ,54.87,69.13,57.13,36,1538237172,49,21.27
275,souillac,FR,45.6,-0.6,73.4,0,1538235000,35,14.99
276,wukari,NG,7.87,9.78,87.01,12,1538237174,80,7.74
277,bandarban,BD,22.2,92.22,86,20,1538233200,79,1.92
278,devli,IN,28.23,77.32,86,20,1538233200,70,4.7
279,pitea,SE,65.32,21.48,44.6,75,1538236200,70,14.99
280,knysna,ZA,-34.04,23.05,62.6,20,1538233200,63,19.46
281,koslan,RU,63.46,48.9,41.02,92,1538237180,98,6.96
282,kuche,,,,,,,,
283,geraldton,CA,49.72,-86.95,32,75,1538233200,77,5.82
284,barrow,AR,-38.31,-60.23,61,92,1538237183,99,13.67
285,mahibadhoo,MV,3.78,72.97,83.77,24,1538237184,99,17.02
286,kushima,JP,31.5,131.29,80.6,90,1538235900,78,17.22
287,high rock,BS,26.63,-78.28,87.8,40,1538233200,62,10.29
288,hualmay,PE,-11.1,-77.61,69.19,20,1538237188,75,5.61
289,muisne,EC,0.61,-80.02,76.39,88,1538237189,82,5.39
290,iskateley,RU,67.68,53.15,40.75,92,1538237190,100,16.24
291,taywarah,AF,33.35,64.42,54.88,80,1538237191,38,3.04
292,eldikan,,,,,,,,
293,capreol,CA,46.71,-80.92,46.4,75,1538233200,65,11.41
294,palabuhanratu,,,,,,,,
295,mezen,RU,65.85,44.24,41.83,88,1538237196,77,8.41
296,ponta do sol,BR,-20.63,-46,81.43,68,1538237197,62,6.96
297,mae tha,TH,18.46,99.14,77,20,1538235000,88,3.36
298,khem karan,IN,31.14,74.56,77,12,1538233200,69,2.04
299,vostok,RU,46.45,135.83,39.49,68,1538237200,86,1.92
300,kyra,,,,,,,,
301,naica,MX,27.86,-105.49,66.31,0,1538237203,84,3.6
302,brovary,UA,50.51,30.79,51.8,20,1538235000,81,8.95
303,torbay,CA,47.66,-52.73,64.4,75,1538233200,93,14.99
304,san policarpo,PH,12.18,125.51,79.54,24,1538237206,100,2.82
305,yellowknife,CA,62.45,-114.38,30.2,75,1538233200,80,9.17
306,paragominas,BR,-3,-47.35,90.43,0,1538237208,63,7.29
307,hornepayne,CA,49.22,-84.78,36.25,32,1538237209,81,8.41
308,zhigansk,RU,66.77,123.37,34.54,92,1538237210,100,4.72
309,saint-joseph,FR,43.56,6.97,80.6,0,1538235000,39,3.36
310,taoudenni,ML,22.68,-3.98,100.15,0,1538237213,18,5.39
311,kloulklubed,PW,7.04,134.26,80.6,75,1538232600,83,11.41
312,buraydah,SA,26.33,43.97,98.6,0,1538233200,16,10.29
313,namibe,AO,-15.19,12.15,70.18,0,1538237044,96,8.75
314,mitsamiouli,KM,-11.38,43.28,80.6,75,1538233200,65,9.17
315,letnik,RU,46.01,41.27,66.67,36,1538237218,48,2.71
316,masyaf,SY,35.06,36.34,80.6,40,1538236800,74,9.17
317,gamba,CN,28.28,88.52,25.36,0,1538237221,72,2.37
318,krasnoyarka,RU,55.33,73.1,53.6,0,1538235000,54,15.66
319,kavieng,PG,-2.57,150.8,83.59,0,1538237223,100,5.95
320,grindavik,IS,63.84,-22.43,42.8,75,1538235000,80,21.92
321,rocha,UY,-34.48,-54.34,80.53,48,1538237225,71,17.81
322,kavaratti,IN,10.57,72.64,82.78,92,1538237227,100,10.76
323,makakilo city,US,21.35,-158.09,78.08,1,1538233020,90,5.82
324,erenhot,CN,43.65,111.97,39.85,56,1538237229,79,8.86
325,skibbereen,IE,51.55,-9.27,55.4,75,1538236800,66,8.05
326,tubruq,,,,,,,,
327,saldanha,PT,41.42,-6.55,81.34,0,1538237232,39,3.94
328,cap malheureux,MU,-19.98,57.61,73.4,75,1538233200,78,11.41
329,adelaide,AU,-34.93,138.6,46.4,0,1538235000,75,6.93
330,curaca,BR,-8.99,-39.91,93.58,0,1538236950,36,8.3
331,hofn,IS,64.25,-15.21,47.14,0,1538237237,89,12.1
332,batticaloa,LK,7.71,81.69,77.29,88,1538237238,100,6.29
333,cravo norte,CO,6.3,-70.2,75.49,92,1538237239,100,6.17
334,hirara,JP,24.8,125.28,81.61,80,1538237240,100,35.14
335,sur,OM,22.57,59.53,85.57,0,1538237241,88,5.61
336,haines junction,CA,60.75,-137.51,15.73,0,1538237242,81,2.15
337,kutum,SD,14.2,24.66,94.39,44,1538237244,14,10.42
338,mahon,IE,51.89,-8.4,55.4,75,1538236800,66,8.05
339,uarini,BR,-2.98,-65.16,87.8,75,1538233200,66,5.82
340,gayny,RU,60.3,54.33,42.37,68,1538237247,86,11.1
341,karakendzha,,,,,,,,
342,marsa matruh,EG,31.35,27.25,80.6,75,1538233200,51,9.17
343,san patricio,PY,-26.98,-56.83,88.63,0,1538237251,61,9.31
344,alofi,NU,-19.06,-169.92,73.4,56,1538233200,83,9.17
345,inuvik,CA,68.36,-133.71,24.8,75,1538233200,92,4.7
346,norman wells,CA,65.28,-126.83,23,75,1538233200,85,4.7
347,west lafayette,US,40.43,-86.91,57.2,40,1538235300,54,4.7
348,amaga,PH,11.43,122.68,73.24,24,1538237257,95,2.93
349,champerico,MX,16.38,-93.6,78.8,40,1538232000,74,3.36
350,bosaso,SO,11.28,49.18,82.69,0,1538237259,100,4.94
351,teneguiban,,,,,,,,
352,ancud,CL,-41.87,-73.83,47.95,92,1538237261,86,12.66
353,emerald,AU,-23.53,148.16,63.16,0,1538237032,85,10.98
354,kremenki,RU,54.51,48.87,50,68,1538233200,66,4.47
355,winnemucca,US,40.97,-117.74,48.92,1,1538236560,10,3.36
356,den helder,NL,52.96,4.76,57.2,40,1538236500,62,10.29
357,north versailles,US,40.38,-79.81,60.98,75,1538236560,67,3.36
358,birjand,IR,32.86,59.22,71.6,0,1538233200,10,11.41
359,longyan,CN,25.1,117.03,63.97,0,1538237269,72,2.71
360,burnie,AU,-41.05,145.91,52.36,24,1538237270,100,17.25
361,hasaki,JP,35.73,140.83,64.4,75,1538235600,100,3.36
362,kununurra,AU,-15.77,128.74,73.4,0,1538235000,78,6.93
363,dhola,NP,27.92,84.82,71.6,20,1538234400,83,4.7
364,orlik,RU,52.51,99.83,16.45,0,1538237275,70,1.92
365,cao bang,VN,22.67,106.25,68.02,12,1538237276,77,2.82
366,fortuna,ES,38.18,-1.13,84.2,0,1538236800,50,4.7
367,oga,NG,8.18,5.65,87.28,0,1538237278,74,3.71
368,iqaluit,CA,63.75,-68.52,33.8,90,1538234700,100,9.17
369,yumen,CN,40.29,97.04,51.46,8,1538237281,24,10.65
370,bambanglipuro,ID,-7.95,110.28,69.55,0,1538237282,99,2.59
371,kaitangata,NZ,-46.28,169.85,45.07,92,1538237283,96,4.38
372,angoche,MZ,-16.23,39.91,79.63,0,1538237284,100,12.66
373,joutseno,FI,61.11,28.48,41,40,1538236200,92,4.7
374,praia,BR,-20.25,-43.81,84.2,40,1538233200,51,11.41
375,ponerihouen,NC,-21.08,165.4,71.08,92,1538237288,100,22.73
376,palmer,AU,-34.85,139.16,46.4,0,1538235000,75,6.93
377,balurghat,IN,25.22,88.78,81.25,20,1538237290,88,2.37
378,narsaq,GL,60.91,-46.05,41,40,1538236200,38,4.7
379,villazon,,,,,,,,
380,khash,IR,28.22,61.21,69.01,0,1538237293,19,8.97
381,dongsheng,CN,29.72,112.52,62.53,0,1538237295,80,2.71
382,soyo,AO,-6.13,12.37,83.59,0,1538237296,65,8.08
383,bahia honda,CU,22.9,-83.16,86.11,20,1538237297,70,7.74
384,phan thiet,VN,10.93,108.1,80.35,68,1538237298,100,6.4
385,ust-kuyga,RU,70,135.55,28.33,92,1538237299,89,5.17
386,juba,EE,57.82,26.93,42.8,80,1538236200,75,5.82
387,constitucion,MX,23.99,-104.67,60.8,90,1538232720,93,4.16
388,brufut,GM,13.38,-16.75,82.15,64,1538237303,97,12.55
389,serenje,ZM,-13.23,30.22,83.68,0,1538237304,20,14
390,dingle,PH,11,122.67,76.66,76,1538237305,97,4.94
391,tsihombe,,,,,,,,
392,mbalmayo,CM,3.52,11.5,86,75,1538233200,55,3.94
393,kattivakkam,IN,13.22,80.32,86,40,1538235000,70,4.7
394,veraval,FR,49.65,0.71,60.8,0,1538236800,44,8.05
395,sicamous,CA,50.84,-118.99,42.8,1,1538233200,75,2.24
396,malangwa,CD,-2.84,17.57,75.49,32,1538237312,96,2.71
397,husavik,CA,50.56,-96.99,35.53,0,1538237313,96,8.97
398,mutsamudu,,,,,,,,
399,la ronge,CA,55.1,-105.3,32,90,1538234760,79,10.29
400,san andres,PH,13.32,122.68,83.23,44,1538237316,100,11.1
401,hazorasp,UZ,41.32,61.08,68,0,1538235000,45,6.93
402,okhotsk,RU,59.36,143.24,39.94,0,1538237319,92,14.23
403,kolondieba,ML,11.09,-6.89,84.76,8,1538237320,91,5.17
404,alyangula,AU,-13.85,136.42,76.03,0,1538237321,100,10.09
405,puerto escondido,MX,15.86,-97.07,78.8,5,1538232000,74,5.82
406,kalengwa,ZM,-13.47,25,89.53,68,1538237323,25,8.75
407,joao pinheiro,BR,-17.74,-46.17,92.95,0,1538237325,37,8.08
408,aksha,RU,50.28,113.29,37.96,0,1538237314,88,5.61
409,ladnun,IN,27.64,74.39,83.95,20,1538237327,37,7.18
410,kailua,US,21.39,-157.74,78.08,75,1538233020,96,3.36
411,anupgarh,IN,29.19,73.21,80.44,36,1538237329,60,4.05
412,severodvinsk,RU,64.56,39.82,37.4,40,1538235000,100,2.24
413,port-gentil,GA,-0.72,8.78,82.4,20,1538233200,83,11.41
414,marawi,PH,8,124.29,66.31,32,1538237332,97,1.81
415,tete,MZ,-16.16,33.59,98.6,20,1538233200,20,16.11
416,ondorhaan,,,,,,,,
417,metro,ID,-5.11,105.31,76.84,0,1538237336,89,4.94
418,tucumcari,US,35.17,-103.73,53.96,90,1538236380,89,8.05
419,kokopo,PG,-4.34,152.27,78.82,0,1538237338,100,13.78
420,glendive,US,47.11,-104.71,42.8,90,1538235660,75,6.93
421,lazaro cardenas,MX,28.39,-105.62,66.2,20,1538232060,72,2.48
422,manutuke,NZ,-38.68,177.91,41.56,0,1538237341,77,5.17
423,boffa,GN,10.18,-14.04,81.52,80,1538237343,91,7.18
424,port lavaca,US,28.61,-96.63,77.18,1,1538236500,90,6.93
425,evensk,RU,61.92,159.24,40.75,92,1538237345,100,13.22
426,kuala pilah,MY,2.74,102.25,84.2,75,1538235000,78,3.36
427,tooele,US,40.53,-112.3,78.08,1,1538236560,27,19.46
428,emborion,GR,40.48,21.55,62.6,75,1538236200,48,7.63
429,ostrovnoy,RU,68.05,39.51,33.91,0,1538237350,82,10.42
430,adrar,DZ,27.87,-0.29,91.4,0,1538233200,22,6.93
431,salinopolis,BR,-0.61,-47.36,83.86,8,1538237352,88,15.68
432,astana,KZ,51.13,71.43,41,0,1538235000,52,6.71
433,itarema,BR,-2.92,-39.92,89.35,0,1538237354,63,16.46
434,paamiut,GL,61.99,-49.67,39.31,76,1538237355,99,19.93
435,college,US,64.86,-147.8,38.48,1,1538232960,17,4.7
436,korla,,,,,,,,
437,dolbeau,,,,,,,,
438,hays,US,38.88,-99.33,48.02,90,1538236080,100,5.82
439,saleaula,,,,,,,,
440,lugovskiy,,,,,,,,
441,sorland,NO,67.67,12.69,49.93,92,1538237200,100,26.31
442,vigrestad,NO,58.57,5.7,50,75,1538236200,87,16.11
443,awjilah,LY,29.14,21.3,87.73,44,1538237365,18,11.43
444,biloela,AU,-24.4,150.51,57.76,24,1538237366,99,3.15
445,hovd,NO,63.83,10.7,50,75,1538236200,66,12.75
446,thinadhoo,MV,0.53,72.93,82.24,68,1538237311,100,12.66
447,kananga,CD,-5.9,22.41,81.16,8,1538237370,75,4.27
448,kharitonovo,RU,61.4,47.5,41.83,92,1538237371,94,11.43
449,saint-pierre,FR,48.95,4.24,64.4,0,1538236800,36,16.11
450,yendi,GH,9.45,0,82.06,64,1538237373,99,4.72
451,nouadhibou,MR,20.93,-17.03,77,0,1538233200,69,13.87
452,rancharia,BR,-22.23,-50.89,86,0,1538233200,45,10.29
453,salinas,US,36.67,-121.66,59,90,1538235300,76,8.05
454,santiago del estero,AR,-27.8,-64.26,97.45,12,1538237378,44,16.46
455,bangolo,CI,7.01,-7.49,74.23,92,1538237379,98,3.49
456,alamosa,US,37.47,-105.87,42.98,1,1538232720,12,3.36
457,bulgan,MN,48.81,103.53,29.14,8,1538237381,76,1.81
458,ahuimanu,US,21.44,-157.84,78.08,75,1538233020,96,3.36
459,ibadan,NG,7.38,3.9,80.89,92,1538237384,90,3.6
460,diffa,NE,13.32,12.61,99.43,0,1538237385,34,8.52
461,banff,CA,51.18,-115.57,27.16,88,1538237372,88,1.81
462,kondinskoye,RU,59.65,67.41,47.68,88,1538237093,94,13.67
463,kjollefjord,NO,70.95,27.35,36.79,32,1538237388,84,14.79
464,pitimbu,BR,-7.47,-34.81,84.2,75,1538233200,66,13.87
465,manokwari,ID,-0.87,134.08,82.24,8,1538237390,100,4.61
466,providencia,CO,1.24,-77.6,68,20,1538233200,68,6.93
467,whitianga,NZ,-36.83,175.7,54.7,0,1538237393,100,4.72
468,pokrovsk-uralskiy,,,,,,,,
469,sitka,US,37.17,-99.65,51.73,92,1538237395,100,4.72
470,huarmey,PE,-10.07,-78.15,72.07,8,1538237396,58,3.94
471,srednekolymsk,RU,67.46,153.71,34.99,92,1538237397,94,6.4
472,axim,GH,4.87,-2.24,78.82,32,1538237398,97,12.66
473,monrovia,LR,6.33,-10.8,79.81,88,1538237400,96,8.08
474,mukhen,RU,48.19,136.14,42.91,48,1538237401,84,4.94
475,manono,CD,-7.3,27.4,92.32,36,1538237402,38,4.16
476,sarahan,IN,31.51,77.79,26.17,0,1538237403,85,1.36
477,bud,NO,62.91,6.91,51.8,75,1538236200,87,11.41
478,santa fe,AR,-31.62,-60.7,71.89,44,1538237406,100,5.39
479,cap-aux-meules,CA,47.38,-61.86,53.6,90,1538233200,87,16.11
480,copiapo,CL,-27.37,-70.33,60.8,75,1538233200,72,13.87
481,sayyan,YE,15.17,44.32,71.62,0,1538237409,18,7.4
482,chumikan,RU,54.72,135.31,42.73,0,1538237411,88,6.29
483,lyuban,BY,52.8,28,50.65,44,1538237412,66,10.65
484,nenjiang,CN,49.17,125.23,43.45,8,1538237413,87,2.82
485,margate,AU,-43.03,147.26,50,75,1538235000,66,10.29
486,coquimbo,CL,-29.95,-71.34,60.8,0,1538233200,77,14.99
487,la libertad,PE,-16.38,-71.56,69.8,0,1538233200,11,8.05
488,gravdal,NO,59.79,5.78,51.8,75,1538236200,87,23.04
489,leningradskiy,RU,69.38,178.42,41.74,64,1538237419,91,17.47
490,nyurba,RU,63.29,118.35,38.68,0,1538237420,93,5.61
491,raudeberg,NO,61.99,5.14,51.8,75,1538236200,87,31.09
492,heinola,FI,61.2,26.03,44.6,0,1538236200,77,5.82
493,udachnyy,RU,66.42,112.4,39.13,0,1538237424,97,4.61
494,kupang,ID,-10.16,123.6,75.2,20,1538233200,94,4.7
495,barawe,,,,,,,,
496,newport,GB,51.59,-3,60.8,0,1538236200,62,6.93
497,kantunilkin,MX,21.1,-87.49,84.2,75,1538232300,74,9.17
498,turukhansk,RU,65.8,87.96,49.3,92,1538237430,71,23.06
499,ratlam,IN,23.33,75.04,74.86,0,1538237245,65,5.5
500,havre-saint-pierre,CA,50.23,-63.6,46.4,90,1538235060,93,12.75
501,san rafael,AR,-34.61,-68.33,56.86,64,1538237434,90,5.84
502,yadgir,IN,16.77,77.14,74.68,56,1538237435,91,2.15
503,oranjestad,AW,12.52,-70.03,87.8,20,1538233200,66,13.87
504,sechura,PE,-5.56,-80.82,69.19,8,1538237437,94,6.06
505,baruun-urt,MN,46.68,113.28,40.39,92,1538237438,94,18.59
506,yongan,CN,39.7,113.69,38.77,0,1538237439,57,6.06
507,shelburne,CA,44.08,-80.2,55.4,75,1538235360,62,12.75
508,watertown,US,44.9,-97.12,46.04,90,1538236380,12,9.17
509,malakal,,,,,,,,
510,tomatlan,MX,19.93,-105.25,76.57,20,1538237444,89,3.27
511,bathsheba,BB,13.22,-59.52,86,40,1538233200,70,20.8
512,namwala,ZM,-15.75,26.45,91.15,0,1538237446,20,16.46
513,shetpe,KZ,44.14,52.16,68.74,64,1538237447,29,6.4
514,klaksvik,FO,62.23,-6.59,46.4,80,1538236200,81,24.16
515,sinnamary,GF,5.38,-52.96,84.58,76,1538237449,89,11.43
516,aleksandrov gay,RU,50.14,48.57,59.38,0,1538237450,59,7.63
517,leirvik,NO,59.78,5.5,51.8,75,1538236200,87,23.04
518,jackson,US,35.61,-88.82,73.4,1,1538236560,68,8.05
519,mount gambier,AU,-37.83,140.78,47.41,56,1538237454,81,2.93
520,plettenberg bay,ZA,-34.05,23.37,63.61,0,1538237455,96,19.26
521,la baule-escoublac,FR,47.28,-2.4,68,0,1538236800,37,10.29
522,ivanava,BY,52.14,25.53,52.18,0,1538237457,60,9.86
523,grevesmuhlen,DE,53.87,11.18,57.2,0,1538236200,54,6.93
524,mendi,ET,9.8,35.1,70.36,36,1538237460,79,2.59
525,volksrust,ZA,-27.36,29.88,65.14,0,1538237461,45,9.19
526,henties bay,NA,-22.12,14.28,67.48,0,1538237462,76,3.38
527,ampanihy,MG,-24.69,44.75,89.17,0,1538237463,29,9.98
528,sistranda,NO,63.73,8.83,50,75,1538236200,81,27.51
529,ciras,,,,,,,,
530,lompoc,US,34.64,-120.46,64.04,1,1538235720,93,4.05
531,ajdabiya,LY,30.75,20.22,82.78,0,1538237467,30,15.57
532,mrirt,,,,,,,,
533,arraial do cabo,BR,-22.97,-42.02,80.6,75,1538236800,74,11.41
534,tawkar,,,,,,,,
535,matamoros,US,25.87,-97.51,77,40,1538236380,93,9.17
536,kambove,CD,-10.88,26.6,85.75,8,1538237473,27,6.96
537,ozernovskiy,RU,51.5,156.52,46.87,92,1538237474,99,11.21
538,arlit,NE,18.74,7.39,103.84,20,1538237475,14,4.94
539,dunedin,NZ,-45.87,170.5,45.43,92,1538237204,99,4.27
540,corralillo,CU,22.98,-80.59,87.1,12,1538237478,77,9.98
541,rungata,,,,,,,,
542,kurchum,KZ,48.57,83.65,52.27,0,1538237480,83,4.38
543,lorengau,PG,-2.02,147.27,83.5,0,1538237481,100,9.08
544,liyang,CN,31.42,119.48,65.95,0,1538237482,79,4.94
545,rio pardo de minas,BR,-15.62,-42.55,90.07,0,1538237483,28,8.75
546,sumbawa,,,,,,,,
547,biu,NG,10.61,12.19,88.54,36,1538237486,49,5.61
548,labutta,,,,,,,,
549,dormidontovka,RU,47.77,134.91,43.99,68,1538237488,88,3.38
550,kenai,US,60.55,-151.26,39.92,1,1538236380,92,4.7
551,shenzhen,CN,22.54,114.05,80.6,0,1538236800,54,6.93
552,mandalgovi,MN,45.76,106.27,32.83,0,1538237491,85,12.66
553,chifeng,CN,42.27,118.96,37.06,0,1538237492,62,6.17
554,beatrice,US,40.27,-96.75,46.4,90,1538236440,98,4.7
555,saint anthony,US,43.97,-111.68,59,1,1538232960,10,4.7
556,kodinsk,RU,58.6,99.18,41.65,0,1538237496,86,5.5
557,flinders,AU,-34.58,150.85,44.6,0,1538233200,81,6.93
558,tumpat,MY,6.2,102.17,82.4,75,1538233200,83,2.24
559,weligama,LK,5.97,80.42,78.46,92,1538237499,98,11.43
560,toliary,,,,,,,,
561,petropavlovsk-kamchatskiy,RU,53.05,158.65,41,0,1538233200,80,2.24
562,astoria,US,46.19,-123.83,55.94,90,1538236500,90,4.7
563,ferrol,ES,43.48,-8.23,84.2,0,1538236800,73,5.82
564,gobabis,NA,-22.45,18.97,95,44,1538233200,54,4.7
565,codrington,AU,-28.95,153.24,57.85,56,1538237506,97,2.04
566,kemin,KG,42.79,75.7,39.49,0,1538237507,75,1.36
567,ngunguru,NZ,-35.62,174.5,54.34,8,1538237508,100,3.83
568,ust-ilimsk,RU,57.96,102.73,43.09,0,1538237509,92,5.73
569,fairbanks,US,64.84,-147.72,33.08,1,1538236680,17,10.29
570,bulalacao,PH,13.7,123.78,78.55,12,1538237512,99,4.16
571,van,TR,38.51,43.37,68,20,1538232600,45,3.36
572,wasilla,US,61.58,-149.44,46.04,90,1538236560,95,3.36
573,gualeguaychu,AR,-33.01,-58.51,74.86,92,1538237515,85,14.79
574,gat,SN,14.69,-16.54,87.8,0,1538233200,62,4.7
575,usinsk,RU,66,57.56,38.68,92,1538237517,98,8.75
576,tasbuget,,,,,,,,
577,cariacica,BR,-20.26,-40.42,80.6,75,1538233200,78,13.87
578,luan,CH,46.36,6.98,66.2,20,1538234400,55,17.22
579,shishou,CN,29.72,112.42,63.07,8,1538237522,81,2.82
580,isla vista,US,34.41,-119.86,64.94,90,1538235720,83,4.61
581,darhan,MN,49.49,105.92,36.88,8,1538237524,96,2.93
582,fare,PF,-16.7,-151.02,75.58,0,1538237525,100,4.72
583,shimoda,JP,34.7,138.93,70.09,100,1538237526,100,16.58
584,manicore,BR,-5.81,-61.3,83.5,80,1538237528,82,2.82
585,yamada,JP,36.58,137.08,64.4,75,1538233200,93,3.36
586,kalmunai,LK,7.42,81.82,75.31,68,1538237530,100,3.15
587,rodrigues alves,BR,-7.74,-72.65,82.4,40,1538233200,78,4.7
588,sabang,PH,13.72,123.58,78.55,12,1538237532,99,4.16
589,tornio,FI,61.12,27.27,44.6,0,1538236200,73,5.82
590,bandarbeyla,SO,9.49,50.81,78.73,0,1538237535,95,21.5
591,novosemeykino,RU,53.37,50.35,50,40,1538235000,93,2.24
592,truth or consequences,US,33.13,-107.25,73.94,1,1538236380,32,0.92
593,mantua,IT,45.16,10.79,77,0,1538236200,38,6.93
594,barabai,ID,-2.59,115.38,82.51,56,1538237540,69,3.6
595,kinablangan,PH,7.69,126.55,81.79,24,1538237541,100,7.63
596,barra do garcas,BR,-15.89,-52.26,96.8,75,1538233200,37,4.7
597,shingu,JP,33.72,135.99,74.68,92,1538237543,100,14.23
598,carbonia,IT,39.17,8.53,80.6,0,1538236200,65,9.17
599,quatre cocos,MU,-20.21,57.76,73.4,75,1538233200,78,11.41
600,lingyuan,CN,41.24,119.4,38.5,0,1538237547,72,5.95
601,svetlyy,,,,,,,,
602,nantucket,US,41.28,-70.1,68,1,1538235300,72,6.93
603,broken hill,AU,-31.97,141.45,42.19,0,1538237550,62,6.17
604,le port,FR,42.87,1.37,54.97,88,1538237551,75,0.69
605,vao,EE,59.1,26.19,44.8,0,1538237552,86,8.75
606,tilichiki,RU,60.47,166.1,34.54,32,1538237553,91,7.85
607,zdzieszowice,PL,50.42,18.12,51.8,0,1538236800,54,6.93
608,satrikh,IN,26.86,81.19,86,0,1538235000,66,3.36
609,golden,CA,51.3,-116.96,33.8,75,1538236800,93,4.7
610,dakar,SN,14.69,-17.45,86,0,1538233200,62,11.41
611,shaunavon,CA,49.65,-108.41,31.21,8,1538237559,77,4.5
612,trinidad,UY,-33.52,-56.9,64.4,90,1538233800,93,11.41
613,bonthe,SL,7.53,-12.5,82.06,68,1538237562,86,4.38
614,shieli,KZ,44.18,66.74,57.58,0,1538237563,35,9.19
615,shar,NG,7.3,8.73,86,75,1538236800,70,10.29
616,barra do corda,BR,-5.5,-45.25,94.39,0,1538237565,48,4.72
617,bengkulu,,,,,,,,
618,warqla,,,,,,,,
619,rongcheng,CN,37.16,122.42,61.63,0,1538237568,94,6.73
620,troitskoye,RU,52.98,84.68,44.26,0,1538237322,80,2.48
621,castel san giovanni,IT,45.06,9.43,78.8,0,1538236500,41,10.29
622,pascagoula,US,30.37,-88.56,80.6,40,1538236560,76,5.82
623,hambantota,LK,6.12,81.12,76.3,92,1538237573,100,6.29
624,kulhudhuffushi,MV,6.62,73.07,81.79,64,1538237574,100,15.23
625,kendari,ID,-3.99,122.52,75.13,64,1538237575,85,3.71
626,mackay,CA,53.65,-115.58,32,90,1538236800,80,4.7
627,ahipara,NZ,-35.17,173.16,42.28,0,1538237577,100,3.94
628,egersund,NO,58.45,6,50,75,1538236200,87,16.11
629,ranong,TH,9.96,98.62,80.6,75,1538233200,94,3.83
630,jining,CN,35.41,116.58,62.26,0,1538237581,53,11.43
631,rawson,AR,-43.3,-65.11,63.16,0,1538237582,49,15.12
632,inta,RU,66.04,60.13,36.79,92,1538237583,99,4.83
633,leh,IN,34.16,77.58,20.77,20,1538237584,74,1.03
634,aripuana,BR,-9.17,-60.63,89.53,12,1538237585,66,3.04
635,narrabri,AU,-30.33,149.78,45.07,0,1538237586,45,6.29
636,ulaangom,MN,49.98,92.07,33.73,36,1538237588,81,1.14
