,Name,country,latitude,longitude,max temperature,cloudiness,date,humidity
0,barrow,AR,-38.31,-60.23,289.037,92,1538186005,97
1,taolanaro,,,,,,,
2,narsaq,GL,60.91,-46.05,277.15,0,1538182200,60
3,nanortalik,GL,60.14,-45.24,276.137,0,1538186006,93
4,khatanga,RU,71.98,102.47,279.037,8,1538186006,97
5,tiksi,RU,71.64,128.87,273.537,76,1538186006,98
6,carnarvon,ZA,-30.97,22.13,275.537,0,1538186006,47
7,rikitea,PF,-23.12,-134.97,295.287,48,1538186006,100
8,vaini,IN,15.34,74.49,294.837,64,1538186006,99
9,bluff,AU,-23.58,149.07,303.887,0,1538186007,33
10,atuona,PF,-9.8,-139.03,299.637,92,1538186095,100
11,mataura,NZ,-46.19,168.86,286.537,92,1538186095,74
12,ushuaia,AR,-54.81,-68.31,275.15,90,1538182800,100
13,la ronge,CA,55.1,-105.3,276.15,75,1538182800,59
14,arraial do cabo,BR,-22.97,-42.02,295.537,80,1538186095,99
15,camargo,MX,27.69,-105.17,292.187,44,1538186095,65
16,bengkulu,,,,,,,
17,punta arenas,CL,-53.16,-70.91,278.15,75,1538182800,75
18,avarua,CK,-21.21,-159.78,297.15,75,1538182800,60
19,rungata,,,,,,,
20,narva,RU,59.38,28.19,278.187,20,1538186096,100
21,albany,US,42.65,-73.75,287.05,75,1538184120,100
22,saldanha,PT,41.42,-6.55,287.037,0,1538186097,74
23,colares,PT,38.8,-9.45,292.15,0,1538184600,72
24,saskylakh,RU,71.97,114.09,275.237,92,1538186097,98
25,tynda,RU,55.15,124.74,284.587,8,1538186097,56
26,tshane,BW,-24.02,21.87,289.487,0,1538186097,19
27,ambulu,ID,-8.35,113.61,300.587,0,1538186097,81
28,porangatu,BR,-13.44,-49.14,297.637,0,1538186098,76
29,yar-sale,RU,66.83,70.83,280.537,92,1538186098,100
30,butaritari,KI,3.07,172.79,302.987,0,1538186098,100
31,binga,ZW,-17.62,27.34,293.387,0,1538186098,75
32,marcona,,,,,,,
33,yellowknife,CA,62.45,-114.38,274.15,75,1538182800,64
34,hobart,AU,-42.88,147.33,285.15,40,1538182800,58
35,nuevo progreso,US,26.05,-97.95,301.15,20,1538182380,84
36,haines junction,CA,60.75,-137.51,276.137,12,1538186099,62
37,medeiros neto,BR,-17.37,-40.22,295.537,0,1538186099,73
38,berlevag,NO,70.86,29.09,272.687,20,1538186099,100
39,olafsvik,,,,,,,
40,barcelona,ES,41.38,2.18,292.15,0,1538184600,68
41,ponta do sol,BR,-20.63,-46,294.487,92,1538186100,72
42,mangan,IN,27.5,88.54,283.187,0,1538186100,58
43,santa helena de goias,BR,-17.81,-50.6,296.237,64,1538186100,77
44,hermanus,ZA,-34.42,19.24,278.037,0,1538186100,94
45,roebourne,AU,-20.77,117.15,303.737,0,1538186100,24
46,cap malheureux,MU,-19.98,57.61,295.15,20,1538182800,73
47,khuzhir,RU,53.19,107.35,282.237,0,1538186100,93
48,tsihombe,,,,,,,
49,san cristobal,EC,-0.39,-78.55,286.15,0,1538182800,71
50,porto novo,BR,-23.68,-45.44,294.15,40,1538182800,83
51,vila velha,BR,-3.71,-38.6,300.15,20,1538182800,78
52,hirara,JP,24.8,125.28,300.15,75,1538184000,94
53,kirakira,SB,-10.46,161.92,300.487,64,1538186102,100
54,kuznetsk,RU,53.11,46.6,284.737,80,1538186102,85
55,hithadhoo,MV,-0.6,73.08,299.537,92,1538186102,100
56,kavieng,PG,-2.57,150.8,303.137,12,1538186102,100
57,tikapur,NP,28.53,81.12,296.687,0,1538186102,84
58,dryden,CA,49.79,-92.84,272.15,75,1538183460,86
59,sahrak,,,,,,,
60,bathsheba,BB,13.22,-59.52,301.15,40,1538182800,78
61,port alfred,ZA,-33.59,26.89,289.687,56,1538186103,91
62,puerto ayora,EC,-0.74,-90.35,294.787,48,1538186103,100
63,east london,ZA,-33.02,27.91,290.987,12,1538186103,100
64,bambous virieux,MU,-20.34,57.76,295.15,20,1538182800,73
65,qaanaaq,GL,77.48,-69.36,262.487,0,1538186104,100
66,lakes entrance,AU,-37.88,147.99,284.787,32,1538186104,81
67,victoria,BN,5.28,115.24,304.15,75,1538184600,83
68,sao joao da barra,BR,-21.64,-41.05,296.237,92,1538186104,100
69,meridian,US,32.36,-88.7,294.85,1,1538182680,90
70,haibowan,,,,,,,
71,boa vista,BR,2.82,-60.67,303.15,0,1538182800,58
72,filadelfia,PY,-22.35,-60.04,300.937,44,1538186106,68
73,busselton,AU,-33.64,115.35,291.387,88,1538186106,89
74,pevek,RU,69.7,170.27,280.237,76,1538186106,87
75,nguiu,,,,,,,
76,bahawalpur,PK,29.39,71.66,298.487,0,1538186107,76
77,halalo,,,,,,,
78,lasa,CY,34.92,32.53,297.15,0,1538184600,53
79,georgetown,GY,6.8,-58.16,298.15,0,1538182800,94
80,tasiilaq,GL,65.61,-37.64,278.15,0,1538182200,38
81,leshukonskoye,RU,64.9,45.76,277.537,92,1538186108,97
82,poum,MK,41.28,20.71,280.237,80,1538186108,60
83,souillac,FR,45.6,-0.6,288.15,0,1538184600,72
84,glace bay,CA,46.2,-59.96,291.15,90,1538182800,100
85,vaitupu,,,,,,,
86,bulawayo,ZW,-20.16,28.59,289.537,0,1538186108,51
87,mount isa,AU,-20.73,139.49,305.15,0,1538182800,14
88,taburi,,,,,,,
89,villa carlos paz,AR,-31.42,-64.5,296.15,0,1538182800,78
90,ruwi,OM,23.6,58.55,301.15,20,1538182200,88
91,oranjemund,ZA,-28.55,16.43,287.337,12,1538186109,94
92,barentsburg,,,,,,,
93,bredasdorp,ZA,-34.53,20.04,286.15,0,1538182800,62
94,taksimo,RU,56.36,114.84,280.337,0,1538186110,73
95,margate,AU,-43.03,147.26,285.15,40,1538182800,86
96,ahipara,NZ,-35.17,173.16,288.037,12,1538186110,71
97,adrar,DZ,27.87,-0.29,296.15,0,1538182800,49
98,yulara,AU,-25.24,130.99,297.15,0,1538184600,25
99,esperance,TT,10.24,-61.45,300.15,20,1538182800,88
100,sentyabrskiy,,,,,,,
101,dukat,RS,42.44,22.31,276.487,12,1538186111,79
102,midland,US,32,-102.08,299.65,0,1538183400,56
103,fairbanks,US,64.84,-147.72,285.95,1,1538182680,7
104,dingle,PH,11,122.67,299.737,80,1538186111,92
105,cape town,ZA,-33.93,18.42,283.15,20,1538182800,81
106,tura,IN,25.52,90.21,299.937,36,1538186112,93
107,saint-philippe,CA,45.36,-73.48,291.15,20,1538183700,82
108,korla,,,,,,,
109,nouadhibou,MR,20.93,-17.03,295.15,0,1538182800,83
110,loreto,PY,-23.27,-57.32,299.687,64,1538186112,72
111,fortuna,ES,38.18,-1.13,292.15,0,1538184600,88
112,torbay,CA,47.66,-52.73,283.15,90,1538182800,100
113,marietta,US,33.95,-84.55,297.05,75,1538184900,100
114,udachnyy,RU,66.42,112.4,279.237,0,1538186113,93
115,bakchar,RU,57.02,82.07,282.237,64,1538186113,75
116,nogliki,RU,51.8,143.14,288.737,8,1538186113,67
117,santa isabel do rio negro,BR,-0.41,-65.02,299.237,64,1538186114,89
118,praia,BR,-20.25,-43.81,294.15,0,1538182800,73
119,touros,BR,-5.2,-35.46,297.837,88,1538186114,93
120,hilo,US,19.71,-155.08,302.55,75,1538182560,67
121,saint george,GR,39.45,22.34,289.15,75,1538182200,63
122,tselinnoye,UA,45.9,34.18,286.037,12,1538186115,100
123,mahebourg,MU,-20.41,57.7,295.15,20,1538182800,73
124,thompson,CA,55.74,-97.86,273.15,90,1538182800,85
125,new norfolk,AU,-42.78,147.06,285.15,40,1538182800,67
126,jamestown,AU,-33.21,138.6,287.637,0,1538186116,40
127,nikolskoye,RU,59.7,30.79,276.15,0,1538182800,74
128,chuy,UY,-33.69,-53.46,290.887,92,1538186116,94
129,kopargaon,IN,19.89,74.48,298.637,0,1538186116,84
130,biak,ID,-0.91,122.88,300.687,44,1538186116,87
131,praia da vitoria,PT,38.73,-27.07,295.15,75,1538182800,100
132,zeya,RU,53.74,127.27,286.987,0,1538186117,49
133,newport,GB,51.59,-3,280.15,8,1538184000,81
134,sobolevo,RU,54.43,31.9,275.237,80,1538186117,88
135,malwan,,,,,,,
136,grants,US,35.15,-107.85,294.95,1,1538183700,5
137,waddan,LY,29.16,16.14,283.387,0,1538186118,58
138,uravakonda,IN,14.95,77.26,296.687,64,1538186118,100
139,illoqqortoormiut,,,,,,,
140,ribeira grande,PT,38.52,-28.7,295.737,20,1538186118,100
141,namatanai,PG,-3.66,152.44,303.237,0,1538186118,90
142,douglas,US,58.28,-134.39,284.85,90,1538182560,89
143,upernavik,GL,72.79,-56.15,273.837,88,1538186119,100
144,aklavik,CA,68.22,-135.01,272.15,75,1538182800,74
145,faanui,PF,-16.48,-151.75,297.987,80,1538186119,100
146,alice springs,AU,-23.7,133.88,296.15,0,1538182800,27
147,sitka,US,37.17,-99.65,286.137,92,1538185846,96
148,mar del plata,AR,-46.43,-67.52,283.987,20,1538185975,62
149,septemvri,BG,42.22,24.1,282.15,44,1538184600,61
150,pacific grove,US,36.62,-121.92,290.35,1,1538184900,72
151,maniitsoq,GL,65.42,-52.9,274.987,88,1538186120,100
152,caxias,BR,-4.87,-43.35,303.15,0,1538182800,55
153,muzhi,RU,65.4,64.7,276.387,76,1538186121,95
154,geraldton,CA,49.72,-86.95,276.15,75,1538182800,97
155,rincon,US,32.3,-81.24,301.15,1,1538184900,93
156,barber,US,39.71,-121.84,303.75,20,1538182440,28
157,port hedland,AU,-20.31,118.58,303.15,0,1538184600,45
158,itaituba,BR,-4.26,-55.99,300.537,8,1538186121,70
159,itoman,JP,26.12,127.67,299.15,90,1538184360,94
160,tessalit,ML,20.2,1.01,295.337,8,1538186122,42
161,burnie,AU,-41.05,145.91,284.937,32,1538186122,99
162,swan river,CA,52.11,-101.27,270.287,8,1538186122,70
163,dalianwan,CN,39.03,121.69,294.15,0,1538182800,56
164,saint-imier,CH,47.15,7,287.15,0,1538184600,81
165,nizhneyansk,,,,,,,
166,pisco,PE,-13.71,-76.2,290.15,0,1538182800,88
167,tuktoyaktuk,CA,69.44,-133.03,272.15,90,1538182800,80
168,dodoma,TZ,-6.18,35.75,286.687,0,1538186123,93
169,chifeng,CN,42.27,118.96,284.387,0,1538186123,62
170,kalemie,CD,-5.95,29.2,299.337,76,1538186123,89
171,hachinohe,JP,40.47,141.48,290.737,88,1538186124,79
172,mabaruma,GY,8.2,-59.78,300.587,80,1538186124,86
173,vestmannaeyjar,IS,63.44,-20.27,280.787,88,1538186124,99
174,dien bien,,,,,,,
175,siguiri,GN,11.42,-9.17,294.337,92,1538186124,99
176,lavrentiya,RU,65.58,-170.99,280.987,92,1538186125,86
177,kapaa,US,22.08,-159.32,303.15,90,1538185380,69
178,mokhotlong,LS,-29.29,29.06,271.837,8,1538186125,51
179,mys shmidta,,,,,,,
180,botshabelo,ZA,-29.23,26.73,279.15,0,1538182800,41
181,castro,CL,-42.48,-73.76,280.887,64,1538186125,100
182,presidencia roque saenz pena,AR,-26.79,-60.44,299.787,68,1538186126,72
183,buta,CD,2.79,24.73,293.987,64,1538186126,98
184,preston,GB,53.76,-2.71,280.15,0,1538184000,93
185,borogontsy,RU,62.67,131.17,278.887,0,1538186126,58
186,monrovia,LR,6.33,-10.8,297.137,92,1538186126,98
187,grand centre,,,,,,,
188,general pico,AR,-35.66,-63.75,290.087,92,1538186127,100
189,ilulissat,GL,69.22,-51.1,273.15,92,1538182200,100
190,kruisfontein,ZA,-34,24.73,289.237,88,1538186127,83
191,thinadhoo,MV,0.53,72.93,299.937,92,1538186127,100
192,lompoc,US,34.64,-120.46,290.95,40,1538184960,82
193,vardo,US,39.62,-77.74,290.15,1,1538183700,86
194,loikaw,MM,19.67,97.21,299.537,20,1538186128,83
195,lahad datu,MY,5.02,118.33,302.337,20,1538186128,84
196,port hueneme,US,34.15,-119.2,298.15,90,1538184840,89
197,victoria falls,ZW,-17.93,25.84,290.987,0,1538186128,54
198,ouadda,CF,8.07,22.4,292.487,8,1538186128,91
199,shirokiy,RU,53.87,39.17,277.337,68,1538186129,89
200,umm durman,,,,,,,
201,kailua,US,21.39,-157.74,303.15,75,1538185320,84
202,selyatino,RU,55.52,36.98,278.15,40,1538182800,86
203,shieli,KZ,44.18,66.74,284.737,0,1538186129,38
204,cayenne,GF,4.94,-52.33,299.15,0,1538184600,94
205,torrox,ES,36.76,-3.95,294.15,100,1538184600,87
206,harper,US,30.3,-99.24,297.05,1,1538183700,74
207,yongan,CN,39.7,113.69,282.137,12,1538186130,74
208,ordu,TR,40.98,37.88,280.387,0,1538186130,84
209,tottori,JP,35.5,134.23,291.15,75,1538182800,93
210,tibacuy,CO,4.35,-74.45,287.15,40,1538182800,76
211,nouakchott,MR,18.08,-15.98,299.987,56,1538186131,97
212,agua dulce,MX,18.14,-94.15,301.15,90,1538182080,78
213,impfondo,CD,1.62,18.06,294.887,68,1538186131,99
214,katsuura,JP,33.93,134.5,292.15,90,1538183880,100
215,grand gaube,MU,-20.01,57.66,295.15,20,1538182800,73
216,belmonte,PT,40.36,-7.35,286.237,0,1538186132,75
217,bontang,ID,0.12,117.47,303.487,8,1538186132,83
218,sola,NO,58.89,5.65,283.15,90,1538184000,87
219,manaus,BR,-3.13,-59.98,303.15,75,1538183760,74
220,netrakona,BD,24.88,90.72,301.887,32,1538186132,93
221,palmer,AU,-34.85,139.16,287.15,40,1538182800,44
222,tsabong,BW,-26.02,22.4,288.487,0,1538186133,24
223,vyshkov,RU,52.48,31.69,283.15,75,1538182800,87
224,belushya guba,,,,,,,
225,necochea,AR,-38.55,-58.74,289.837,76,1538186103,93
226,havoysund,NO,71,24.66,274.987,92,1538186133,100
227,olinda,EC,-2.03,-79.75,297.15,20,1538182800,73
228,lielvarde,LV,56.72,24.81,279.15,75,1538184000,100
229,ballina,IE,54.11,-9.15,274.537,0,1538186134,100
230,pangnirtung,CA,66.15,-65.72,270.937,20,1538186134,87
231,tuatapere,NZ,-46.13,167.69,283.787,76,1538186134,100
232,youkounkoun,GN,12.53,-13.12,296.537,88,1538186135,94
233,peniche,PT,39.36,-9.38,291.15,0,1538184600,72
234,vila franca do campo,PT,37.72,-25.43,294.15,75,1538184600,88
235,numan,NG,9.46,12.04,295.837,92,1538186135,94
236,college,US,64.86,-147.8,285.95,1,1538182680,7
237,mumford,GH,5.26,-0.76,296.637,20,1538186136,96
238,cidreira,BR,-30.17,-50.22,292.737,48,1538186136,91
239,bronnitsy,RU,55.42,38.26,277.15,0,1538182800,86
240,port elizabeth,US,39.31,-74.98,290.45,1,1538182560,96
241,andenes,,,,,,,
242,taltal,CL,-25.41,-70.49,284.137,0,1538186136,95
243,concepcion del uruguay,AR,-32.48,-58.24,297.087,24,1538186136,77
244,karratha,AU,-20.74,116.85,303.737,0,1538186137,24
245,constitucion,MX,23.99,-104.67,290.15,90,1538181780,72
246,wajir,KE,1.75,40.07,294.887,64,1538186137,90
247,airai,TL,-8.93,125.41,302.987,0,1538186137,41
248,sao filipe,CV,14.9,-24.5,298.837,8,1538186137,96
249,vanimo,PG,-2.67,141.3,301.537,0,1538186138,100
250,qaqortoq,GL,60.72,-46.03,277.15,0,1538182200,60
251,maragogi,BR,-9.01,-35.22,295.937,80,1538186051,98
252,coquimbo,CL,-29.95,-71.34,286.15,0,1538182800,87
253,kamaishi,JP,39.28,141.86,289.15,75,1538182800,82
254,sijunjung,ID,-0.69,100.95,299.737,36,1538186138,74
255,machado,BR,-21.69,-45.92,289.987,8,1538186138,87
256,bossembele,,,,,,,
257,vilyuysk,RU,63.75,121.63,279.787,80,1538186139,67
258,guerrero negro,MX,27.97,-114.04,295.837,0,1538186139,76
259,dong hoi,VN,17.48,106.6,298.487,92,1538186139,100
260,monte cristi,,,,,,,
261,kota kinabalu,MY,5.98,116.07,304.15,75,1538184600,70
262,kushmurun,,,,,,,
263,kirra,GR,38.43,22.45,286.137,88,1538186140,100
264,laguna,MX,27.52,-110.01,304.15,5,1538182020,52
265,mount gambier,AU,-37.83,140.78,286.137,68,1538186021,68
266,nago,IT,45.88,10.89,290.15,0,1538184000,76
267,antofagasta,CL,-23.65,-70.4,288.15,90,1538182800,72
268,dunedin,NZ,-45.87,170.5,286.837,48,1538186140,61
269,cherkasskoye,RU,52.43,47.21,283.437,24,1538186140,85
270,el sauzal,AR,-24.3,-64.96,300.15,0,1538182800,57
271,visby,SE,57.64,18.3,281.15,0,1538184000,70
272,half moon bay,US,37.46,-122.43,294.15,20,1538182560,62
273,cabo san lucas,MX,22.89,-109.91,302.15,75,1538181960,78
274,byron bay,AU,-28.65,153.62,297.15,36,1538182800,64
275,iqaluit,CA,63.75,-68.52,274.15,75,1538182800,74
276,agadez,NE,16.97,7.99,299.337,56,1538186141,23
277,christchurch,NZ,-43.53,172.64,291.15,0,1538184600,42
278,chadiza,ZM,-14.06,32.43,291.037,0,1538186142,63
279,taloqan,AF,36.74,69.54,285.637,0,1538186142,48
280,walvis bay,NA,-22.95,14.51,286.15,0,1538182800,76
281,san patricio,PY,-26.98,-56.83,297.837,0,1538186142,82
282,marawi,PH,8,124.29,301.037,20,1538186142,71
283,artyk,,,,,,,
284,grindavik,IS,63.84,-22.43,280.15,75,1538182800,81
285,brae,GB,60.4,-1.35,284.15,92,1538184000,66
286,champerico,MX,16.38,-93.6,294.337,92,1538186143,92
287,salalah,OM,17.01,54.1,299.15,75,1538182200,74
288,ancud,CL,-41.87,-73.83,281.587,68,1538186144,96
289,kuytun,RU,54.34,101.51,280.237,0,1538186144,71
290,provideniya,RU,64.42,-173.23,282.637,92,1538186144,83
291,tukrah,,,,,,,
292,dikson,RU,73.51,80.55,276.887,44,1538186144,94
293,scarborough,GB,54.28,-0.41,277.15,8,1538182200,93
294,mackay,CA,53.65,-115.58,278.15,75,1538182800,60
295,kinsale,IE,51.71,-8.52,280.15,20,1538182800,87
296,lata,IN,30.78,78.62,287.837,0,1538186145,86
297,irbil,,,,,,,
298,grand river south east,,,,,,,
299,goure,NE,13.98,10.27,296.887,0,1538186146,67
300,chokurdakh,RU,70.62,147.9,273.387,36,1538186146,100
301,vao,EE,59.1,26.19,274.637,32,1538186146,84
302,gizo,IL,31.8,34.94,295.15,0,1538184000,73
303,bilibino,RU,68.06,166.44,279.937,48,1538186146,61
304,ous,RU,60.91,61.52,277.487,56,1538186146,84
305,iskateley,RU,67.68,53.15,276.887,80,1538186147,100
306,zheleznodorozhnyy,RU,55.75,38,278.15,0,1538182800,86
307,kaitangata,NZ,-46.28,169.85,287.937,92,1538186147,65
308,pachino,IT,36.72,15.09,295.487,12,1538185863,100
309,rundu,NA,-17.91,19.77,296.537,64,1538186147,28
310,saint-pierre,FR,48.95,4.24,283.15,0,1538184600,87
311,sosva,RU,59.17,61.86,278.687,92,1538186148,95
312,charleston,US,38.35,-81.63,289.25,1,1538182440,96
313,kizukuri,JP,40.81,140.39,291.15,75,1538182800,59
314,dali,CN,25.6,100.24,288.837,68,1538186148,100
315,san policarpo,PH,12.18,125.51,303.387,20,1538186148,86
316,sao gabriel da cachoeira,BR,-0.13,-67.09,298.087,68,1538186149,93
317,asau,,,,,,,
318,porto torres,IT,40.84,8.4,285.15,0,1538184000,100
319,gillette,US,44.29,-105.5,278.75,90,1538182380,78
320,hue,VN,16.47,107.58,299.15,75,1538182800,100
321,svetlyy,,,,,,,
322,nemuro,JP,43.32,145.57,287.15,75,1538182800,87
323,shimoda,JP,34.7,138.93,292.15,75,1538182800,77
324,batemans bay,AU,-35.71,150.18,285.737,12,1538186150,78
325,suntar,RU,62.16,117.65,280.187,88,1538186151,73
326,luena,AO,-11.78,19.91,289.887,8,1538186151,78
327,cherskiy,RU,68.75,161.3,279.137,0,1538186151,77
328,longyearbyen,NO,78.22,15.63,270.15,75,1538182200,79
329,kizema,RU,61.11,44.83,276.537,76,1538186151,98
330,allanmyo,,,,,,,
331,gazimurskiy zavod,RU,51.55,118.33,284.637,44,1538186151,66
332,dosso,NE,13.05,3.19,297.887,20,1538186152,78
333,mayumba,GA,-3.44,10.65,296.887,88,1538186152,100
334,san andres,PH,13.32,122.68,301.687,36,1538186152,100
335,normandin,CA,48.84,-72.53,282.15,90,1538185500,93
336,jagodina,RS,43.98,21.26,275.15,0,1538184600,100
337,niquelandia,BR,-14.47,-48.46,299.887,44,1538186153,46
338,kisangani,CD,0.52,25.21,293.637,20,1538186153,100
339,skibbereen,IE,51.55,-9.27,280.15,20,1538182800,87
340,san ramon,NI,12.92,-85.84,293.837,92,1538186154,93
341,warkworth,NZ,-36.4,174.66,289.15,68,1538184600,63
342,roma,IT,41.89,12.48,290.15,0,1538184000,58
343,codrington,AU,-28.95,153.24,299.887,32,1538186154,57
344,sovetskiy,RU,56.76,48.47,278.737,88,1538186154,91
345,wenling,CN,28.38,121.38,299.087,0,1538186154,84
346,wewak,PG,-3.55,143.63,303.887,36,1538186155,66
347,kalmar,SE,56.66,16.36,275.15,0,1538184000,80
348,hamilton,BM,32.3,-64.78,298.15,40,1538182500,73
349,calama,CL,-22.46,-68.93,285.15,0,1538182800,10
350,shelburne,CA,44.08,-80.2,285.15,90,1538183700,87
351,attawapiskat,,,,,,,
352,najran,SA,17.54,44.22,296.15,0,1538182800,27
353,rawson,AR,-43.3,-65.11,285.937,0,1538186156,52
354,la cruz,MX,23.92,-106.89,299.437,68,1538186156,88
355,halifax,CA,44.65,-63.58,286.15,90,1538183400,100
356,kununurra,AU,-15.77,128.74,305.15,0,1538182800,46
357,campulung moldovenesc,RO,47.53,25.57,287.15,0,1538184600,76
358,lolua,,,,,,,
359,verkhnevilyuysk,RU,63.45,120.31,279.587,80,1538186157,73
360,labuhan,ID,-2.54,115.51,304.637,0,1538186157,59
361,camopi,GF,3.17,-52.33,300.437,0,1538186157,66
362,talaya,RU,55.79,84.89,285.887,24,1538186157,62
363,port moresby,PG,-9.47,147.16,302.15,40,1538182800,54
364,maracas,TT,10.76,-61.44,300.15,20,1538182800,88
365,hasaki,JP,35.73,140.83,295.15,75,1538182800,78
366,oudtshoorn,ZA,-33.59,22.2,283.15,0,1538182800,71
367,phan thiet,VN,10.93,108.1,300.537,88,1538186158,100
368,bom jesus,BR,-9.08,-44.36,300.787,0,1538186159,28
369,tacoronte,ES,28.48,-16.41,297.15,80,1538184600,88
370,togur,RU,58.36,82.83,285.037,100,1538186059,88
371,mizdah,LY,31.45,12.98,284.587,0,1538186160,89
372,bethel,US,60.79,-161.76,293.15,1,1538182380,48
373,gurupi,BR,-11.73,-49.07,297.887,0,1538186161,77
374,itarema,BR,-2.92,-39.92,297.237,0,1538186161,89
375,asfi,,,,,,,
376,lattes,FR,43.57,3.9,293.15,0,1538184600,59
377,norman wells,CA,65.28,-126.83,275.15,75,1538182800,69
378,hami,CN,42.84,93.51,290.187,32,1538186161,40
379,bac lieu,,,,,,,
380,dickson,US,36.08,-87.39,294.25,1,1538183700,93
381,winslow,GB,51.94,-0.88,280.15,20,1538184000,87
382,muroto,JP,33.37,134.14,296.15,75,1538182800,78
383,omboue,GA,-1.57,9.26,298.337,92,1538186163,100
384,carman,CA,49.51,-98,275.15,0,1538183700,100
385,malakal,,,,,,,
386,scottsburgh,,,,,,,
387,tual,ID,-5.67,132.75,301.087,0,1538186167,94
388,ketchikan,US,55.34,-131.65,289.85,20,1538182560,67
389,ingham,AU,-18.65,146.16,298.237,0,1538186167,79
390,moussoro,TD,13.64,16.49,297.037,0,1538186167,79
391,samusu,,,,,,,
392,surt,LY,31.21,16.59,295.387,0,1538186168,100
393,kamenskoye,,,,,,,
394,saint-leu,RE,-21.15,55.28,293.15,0,1538184600,59
395,havelock,US,34.88,-76.9,300.35,75,1538183280,100
396,pemangkat,,,,,,,
397,padang,ID,-0.92,100.36,299.637,8,1538186168,100
398,voh,NC,-20.95,164.69,296.987,0,1538186168,84
399,killybegs,IE,54.63,-8.45,281.987,0,1538186168,100
400,leningradskiy,RU,69.38,178.42,278.837,92,1538186169,90
401,uzhur,RU,55.32,89.85,285.537,12,1538186169,88
402,boguchany,RU,58.38,97.46,279.887,0,1538186169,75
403,isla vista,US,34.41,-119.86,292.05,1,1538184960,72
404,dongying,CN,37.43,118.67,297.187,0,1538186169,61
405,port macquarie,AU,-31.43,152.91,295.15,56,1538182800,53
406,faya,SA,18.39,42.45,291.15,0,1538182800,46
407,ishigaki,JP,24.34,124.16,299.15,75,1538182800,94
408,mingyue,CN,43.11,128.91,287.387,48,1538186170,80
409,kroderen,,,,,,,
410,wattegama,LK,7.35,80.68,297.487,68,1538186170,89
411,kapit,MY,2.02,112.94,296.387,100,1538186170,97
412,mehamn,NO,71.03,27.85,274.487,12,1538186171,100
413,gat,SN,14.69,-16.54,299.737,48,1538186171,85
414,prince george,CA,53.92,-122.75,284.15,75,1538182800,53
415,wageningen,NL,51.98,5.66,277.15,0,1538184300,93
416,ranong,TH,9.96,98.62,300.15,20,1538182800,94
417,nome,US,30.04,-94.42,299.25,40,1538183700,83
418,ardakan,IR,32.31,54.02,289.15,0,1538182800,26
419,meulaboh,ID,4.14,96.13,300.137,56,1538186172,100
420,riberalta,BO,-11,-66.08,297.237,8,1538186172,94
421,kyra,,,,,,,
422,portland,US,45.52,-122.67,302.55,1,1538182560,32
423,pitea,SE,65.32,21.48,270.15,32,1538184000,92
424,kangaatsiaq,GL,68.31,-53.46,274.987,92,1538186173,100
425,anadyr,RU,64.73,177.51,279.15,75,1538182800,93
426,cairns,AU,-16.92,145.77,301.15,20,1538182800,45
427,unye,,,,,,,
428,yerofey pavlovich,RU,53.97,121.97,288.487,0,1538186173,44
429,zhigansk,RU,66.77,123.37,276.437,20,1538186173,93
430,vostok,RU,46.45,135.83,287.737,0,1538186174,61
431,sabang,PH,13.72,123.58,301.987,32,1538186174,90
432,dongsheng,CN,29.72,112.52,298.737,0,1538186174,71
433,tromso,NO,69.65,18.96,275.15,40,1538184000,69
434,morgan city,US,29.7,-91.21,296.15,75,1538184900,100
435,thai binh,VN,20.45,106.33,299.887,36,1538186175,80
436,bakel,SN,14.9,-12.46,300.187,92,1538186175,77
437,belousovka,KZ,50.13,82.52,278.15,40,1538182800,93
438,canora,CA,51.64,-102.43,274.15,1,1538182800,55
439,quixada,,,,,,,
440,bonavista,CA,48.65,-53.11,284.687,100,1538186175,98
441,panzhihua,CN,26.59,101.72,289.537,92,1538186176,97
442,junin,PE,-16.45,-71.58,287.15,0,1538182800,26
443,bobo dioulasso,,,,,,,
444,andevoranto,,,,,,,
445,bom jardim,BR,-7.8,-35.59,294.187,68,1538186176,94
446,sinnamary,GF,5.38,-52.96,301.037,12,1538186177,95
447,hualmay,PE,-11.1,-77.61,286.437,20,1538186177,92
448,pau dos ferros,BR,-6.11,-38.21,299.337,0,1538186177,53
449,nyurba,RU,63.29,118.35,280.637,12,1538186177,72
450,zyryanka,RU,65.73,150.89,273.987,92,1538186177,77
451,nadym,RU,65.53,72.51,280.237,92,1538186178,100
452,iksha,RU,56.18,37.5,278.15,40,1538182800,93
453,bokspits,,,,,,,
454,thunder bay,CA,48.41,-89.26,276.15,75,1538182800,86
455,tambo,AU,-24.88,146.25,303.137,0,1538186178,33
456,sibolga,ID,1.74,98.78,297.537,68,1538186178,93
457,potzu,,,,,,,
458,umm lajj,SA,25.02,37.27,299.087,36,1538186179,100
459,lagoa,PT,37.14,-8.45,295.15,0,1538184600,88
460,gornopravdinsk,RU,60.06,69.92,279.487,44,1538186179,91
461,bajo baudo,,,,,,,
462,paamiut,GL,61.99,-49.67,277.387,88,1538186179,96
463,lebu,ET,8.96,38.73,278.137,8,1538186180,77
464,rumoi,JP,43.93,141.67,287.15,20,1538182800,87
465,bedford,GB,52.14,-0.47,279.15,20,1538184000,87
466,jacareacanga,BR,-6.22,-57.76,296.537,56,1538186180,92
467,roald,NO,62.58,6.12,282.15,92,1538184000,87
468,chengmai,,,,,,,
469,kaa-khem,RU,51.7,94.56,283.637,0,1538186181,85
470,urucara,BR,-2.54,-57.76,298.487,12,1538186181,87
471,aguimes,ES,27.91,-15.45,297.15,40,1538184600,73
472,chernyshkovskiy,RU,48.42,42.23,277.787,0,1538186181,88
473,krasnokamensk,RU,50.1,118.04,283.387,88,1538186181,89
474,ojinaga,US,29.56,-104.41,292.787,0,1538186182,39
475,dolbeau,,,,,,,
476,martapura,ID,-3.41,114.85,302.15,0,1538182800,70
477,kodiak,US,39.95,-94.76,283.75,90,1538182380,68
478,alekseyevka,RU,53.25,50.49,285.15,0,1538182800,76
479,tongren,CN,27.72,109.18,295.187,12,1538186182,77
480,clyde river,CA,70.47,-68.59,272.15,90,1538182800,86
481,jalingo,NG,10.21,12.82,292.187,20,1538186183,91
482,caravelas,BR,-17.73,-39.27,298.037,8,1538186183,100
483,tateyama,JP,36.66,137.31,293.15,75,1538182800,82
484,kars,TR,40.61,43.1,281.15,0,1538182800,93
485,mbandaka,CD,0.05,18.26,295.887,64,1538186183,99
486,paeroa,NZ,-37.37,175.68,287.837,64,1538186184,55
487,sorland,NO,67.67,12.69,281.387,92,1538186026,100
488,caramay,PH,10.18,119.24,301.887,68,1538186184,99
489,bainbridge,US,30.9,-84.58,299.15,12,1538184900,83
490,okhotsk,RU,59.36,143.24,280.787,48,1538186184,78
491,licheng,CN,24.5,110.4,297.637,0,1538186184,72
492,alghero,IT,40.56,8.32,285.15,0,1538184000,100
493,evensk,RU,61.92,159.24,279.087,92,1538186185,100
494,chingirlau,KZ,51.09,54.08,280.537,0,1538185920,81
495,san matias,HN,13.97,-86.63,293.15,40,1538182800,88
496,kon tum,VN,14.36,108,299.037,0,1538186185,77
497,notre-dame-du-lac,CA,47.61,-68.8,283.15,1,1538182380,74
498,carnduff,CA,49.17,-101.8,271.637,36,1538186186,77
499,molteno,ZA,-31.4,26.36,270.537,0,1538186186,60
500,jacobina,BR,-11.19,-40.51,291.137,0,1538186186,65
501,tulum,MX,20.21,-87.46,299.15,75,1538181900,94
502,alofi,NU,-19.06,-169.92,300.15,75,1538182800,61
503,saint-joseph,FR,43.56,6.97,292.15,20,1538184600,87
504,peplos,GR,40.96,26.27,288.237,92,1538186187,100
505,cockburn town,TC,21.46,-71.14,301.737,20,1538186187,97
506,hihifo,,,,,,,
507,khomeynishahr,,,,,,,
508,pumiao,CN,22.75,108.49,298.15,0,1538182800,65
509,nizwa,OM,22.93,57.53,292.287,0,1538186187,63
510,bilma,NE,18.69,12.92,294.187,0,1538186188,38
511,afsin,TR,38.25,36.91,278.037,0,1538186188,83
512,saiha,IN,22.49,92.98,297.737,56,1538186188,92
513,tezu,IN,27.93,96.16,293.937,44,1538186188,77
514,namie,JP,37.52,140.86,292.15,75,1538182800,82
515,riyadh,SA,24.63,46.72,298.15,0,1538182800,14
516,dwarka,IN,28.58,77.04,296.15,0,1538182800,88
517,kathmandu,NP,27.71,85.32,293.15,20,1538184000,88
518,sioux lookout,CA,50.1,-91.92,274.15,75,1538183460,64
519,amderma,,,,,,,
520,cortez,US,37.35,-108.58,295.95,1,1538182380,5
521,fujin,CN,47.24,132.03,290.687,8,1538186189,88
522,maldonado,UY,-34.91,-54.96,290.15,90,1538182800,93
523,henties bay,NA,-22.12,14.28,285.487,0,1538186190,99
524,ngukurr,,,,,,,
525,shitanjing,CN,39.23,106.34,290.187,0,1538186011,25
526,te anau,NZ,-45.41,167.72,281.987,80,1538186190,90
527,krasnotorka,UA,48.68,37.52,279.587,0,1538186190,90
528,acari,BR,-6.44,-36.64,294.137,0,1538186190,79
529,pedernales,EC,0.07,-80.05,294.737,20,1538186191,94
530,tekeli,KZ,44.86,78.76,288.237,0,1538186191,52
531,wesselsbron,ZA,-27.85,26.36,280.537,0,1538186191,69
532,barquisimeto,VE,10.07,-69.32,297.15,75,1538182800,88
533,pochutla,MX,15.74,-96.47,301.15,90,1538181660,74
534,luderitz,NA,-26.65,15.16,286.837,8,1538186191,70
535,iquique,CL,-20.22,-70.14,290.15,75,1538182800,77
536,melipilla,CL,-33.69,-71.21,286.15,90,1538182800,100
537,camalu,MX,30.85,-116.07,292.237,0,1538186192,76
538,sao miguel do araguaia,BR,-13.28,-50.16,298.537,0,1538186192,80
539,patancheru,IN,17.53,78.27,295.15,20,1538184600,94
540,ponta delgada,PT,37.73,-25.67,294.15,75,1538184600,88
541,manta,RO,45.1,24.1,277.887,64,1538186193,80
542,balkanabat,TM,39.51,54.36,286.187,0,1538186193,68
543,piryion,,,,,,,
544,owerri,NG,5.49,7.03,295.337,92,1538186193,99
545,jieshi,CN,22.82,115.83,301.537,8,1538186193,86
546,atambua,ID,-9.11,124.89,303.137,0,1538186193,75
547,ostrovnoy,RU,68.05,39.51,275.687,88,1538186194,82
548,puunsi,,,,,,,
549,iquitos,PE,-3.75,-73.25,298.15,40,1538182800,94
550,talnakh,RU,69.49,88.39,282.587,68,1538186194,84
551,novo aripuana,BR,-5.12,-60.38,298.537,8,1538186194,92
552,bandrele,YT,-12.91,45.19,295.15,20,1538184600,94
553,barcelos,PT,41.53,-8.62,288.15,75,1538184600,93
554,puerto maldonado,PE,-12.59,-69.19,297.687,56,1538186195,90
555,vangaindrano,MG,-23.35,47.6,292.137,100,1538186195,100
556,helong,CN,25.94,116.13,297.837,0,1538186195,57
557,port hardy,CA,50.7,-127.42,287.15,20,1538182800,82
558,sambava,MG,-14.27,50.17,296.237,80,1538186196,100
559,tadine,NC,-21.55,167.88,295.537,92,1538186196,93
560,abha,SA,18.22,42.5,291.15,0,1538182800,36
561,severo-kurilsk,RU,50.68,156.12,284.937,36,1538186196,85
562,kavaratti,IN,10.57,72.64,300.237,76,1538186196,100
563,dubrovka,RU,59.85,30.93,276.15,0,1538182800,74
564,homer,US,59.64,-151.54,287.05,90,1538182380,80
565,sumbawa,,,,,,,
566,jiuquan,CN,39.73,98.49,285.887,8,1538186197,29
567,kuching,MY,1.56,110.34,298.15,75,1538184600,94
568,nantucket,US,41.28,-70.1,288.15,90,1538185020,96
569,svetlaya,RU,46.54,138.33,289.337,0,1538186198,89
570,kedrovyy,RU,56.17,91.82,276.15,0,1538182800,100
571,santiago de cuba,CU,20.03,-75.83,299.25,20,1538182560,73
572,egvekinot,RU,66.32,-179.17,277.337,92,1538186198,98
573,shetpe,KZ,44.14,52.16,279.987,8,1538186198,76
574,plettenberg bay,ZA,-34.05,23.37,288.437,76,1538186198,100
575,labuan,BN,5.28,115.24,304.15,75,1538184600,83
576,rio bueno,JM,18.47,-77.46,300.15,20,1538182800,69
577,yunjinghong,,,,,,,
578,yacuiba,AR,-22.01,-63.68,302.737,100,1538186199,47
579,atbasar,KZ,51.81,68.36,278.137,0,1538186199,77
580,hofn,IS,64.25,-15.21,280.737,44,1538186199,96
581,perelyub,RU,51.87,50.37,281.387,24,1538186200,80
582,mae hong son,MM,19.3,97.96,298.15,40,1538182800,83
583,stoyba,,,,,,,
584,constantine,DZ,36.36,6.61,284.15,0,1538184600,93
585,katobu,ID,-4.94,122.53,301.337,88,1538186200,88
586,harlingen,US,26.19,-97.7,301.15,1,1538182380,72
587,barbar,,,,,,,
588,bindki,IN,26.04,80.58,304.637,0,1538186201,53
589,deputatskiy,RU,69.3,139.9,271.337,88,1538186201,89
590,chilca,PE,-13.22,-72.34,283.15,20,1538184600,57
591,puerto escondido,MX,15.86,-97.07,301.15,90,1538181660,74
592,toyooka,JP,35.55,134.82,291.15,75,1538182800,100
593,clemson,US,34.69,-82.84,298.15,1,1538184900,100
594,axim,GH,4.87,-2.24,298.337,88,1538186202,100
595,mendahara,,,,,,,
